iata,name,city,country,lat,lon
LIS,Humberto Delgado,Lisbon,PT,38.7742,-9.1342
OPO,Francisco Sa Carneiro,Porto,PT,41.2481,-8.6814
MAD,Adolfo Suarez Barajas,Madrid,ES,40.4983,-3.5676
BCN,Josep Tarradellas El Prat,Barcelona,ES,41.2974,2.0833
CDG,Charles de Gaulle,Paris,FR,49.0097,2.5479
FCO,Leonardo da Vinci Fiumicino,Rome,IT,41.8003,12.2389
BER,Brandenburg,Berlin,DE,52.3667,13.5033
ATH,Eleftherios Venizelos,Athens,GR,37.9364,23.9445
